City,Country,Date,Latitude,Longitude,Cloudiness,Humidity,Max Temperature,Wind Speed
Rikitea,PF,2020-09-10 15:22:36,-23.12,-134.97,100,82,73.51,19.95
Busselton,AU,2020-09-10 15:22:37,-33.65,115.33,68,78,46.99,3.18
Vaini,TO,2020-09-10 15:22:37,-21.2,-175.2,75,88,73.4,11.41
Jamestown,US,2020-09-10 15:20:15,42.1,-79.24,90,83,73.0,3.36
East London,ZA,2020-09-10 15:22:37,-33.02,27.91,20,87,60.8,5.82
Tuktoyaktuk,CA,2020-09-10 15:22:37,69.45,-133.04,90,77,35.6,11.41
Bengkulu,ID,2020-09-10 15:22:37,-3.8,102.27,100,88,74.7,4.74
Albany,US,2020-09-10 15:22:38,42.6,-73.97,78,95,77.0,3.27
Carnarvon,AU,2020-09-10 15:22:38,-24.87,113.63,0,82,64.4,18.34
Sinnamary,GF,2020-09-10 15:22:38,5.38,-52.95,0,68,85.71,13.76
Pangnirtung,CA,2020-09-10 15:22:38,66.15,-65.71,90,64,39.2,14.99
Punta Arenas,CL,2020-09-10 15:19:31,-53.15,-70.92,100,81,42.8,10.29
Mandurah,AU,2020-09-10 15:20:44,-32.55,115.7,100,73,53.01,5.41
Ancud,CL,2020-09-10 15:22:39,-41.87,-73.82,69,61,54.0,5.01
Douentza,ML,2020-09-10 15:22:39,15.0,-2.95,100,44,91.31,11.54
Portland,US,2020-09-10 15:18:05,45.52,-122.68,20,43,82.0,5.82
Te Anau,NZ,2020-09-10 15:22:39,-45.42,167.72,54,93,33.26,2.28
Ribeira Grande,PT,2020-09-10 15:22:39,38.52,-28.7,20,73,75.2,5.82
Sitka,US,2020-09-10 15:22:39,57.05,-135.33,90,82,57.2,14.99
Bredasdorp,ZA,2020-09-10 15:22:40,-34.53,20.04,100,87,59.0,12.75
Ushuaia,AR,2020-09-10 15:22:40,-54.8,-68.3,40,50,51.8,9.17
Mahébourg,MU,2020-09-10 15:22:40,-20.41,57.7,75,83,71.6,17.22
St. George's,GD,2020-09-10 15:18:43,12.06,-61.75,45,73,83.71,5.39
Hobart,AU,2020-09-10 15:19:25,-42.88,147.33,88,70,46.4,10.29
Māngrol,IN,2020-09-10 15:22:40,21.12,70.12,100,82,81.07,8.99
Iranshahr,IR,2020-09-10 15:22:41,27.2,60.68,0,11,95.0,9.17
Kiama,AU,2020-09-10 15:22:41,-34.68,150.87,86,84,53.01,0.56
Hermanus,ZA,2020-09-10 15:22:41,-34.42,19.23,100,89,57.99,7.0
Tuatapere,NZ,2020-09-10 15:22:41,-46.13,167.68,97,91,39.0,1.01
Sivas Province,TR,2020-09-10 15:22:41,39.79,37.0,0,87,57.2,6.93
Yangi Marg`ilon,UZ,2020-09-10 15:22:41,40.43,71.72,0,49,69.8,4.7
Cidreira,BR,2020-09-10 15:22:42,-30.18,-50.21,0,82,63.19,11.16
Richards Bay,ZA,2020-09-10 15:22:42,-28.78,32.04,98,79,67.96,8.25
Qandala,SO,2020-09-10 15:22:42,11.47,49.87,0,56,89.53,2.95
Cape Town,ZA,2020-09-10 15:18:02,-33.93,18.42,98,77,61.0,9.17
Iqaluit,CA,2020-09-10 15:22:42,63.75,-68.51,75,64,39.2,6.93
Norman Wells,CA,2020-09-10 15:22:43,65.28,-126.83,90,93,46.4,11.41
Hasaki,JP,2020-09-10 15:22:43,35.73,140.83,40,94,75.2,3.36
Coolum Beach,AU,2020-09-10 15:22:43,-26.53,153.1,98,97,59.0,3.0
Butaritari,KI,2020-09-10 15:22:43,3.07,172.79,97,78,82.44,16.73
Avarua,CK,2020-09-10 15:22:43,-21.21,-159.78,100,94,73.4,12.75
Barrow,US,2020-09-10 15:22:44,71.29,-156.79,90,93,39.2,20.8
Lorengau,PG,2020-09-10 15:22:44,-2.02,147.27,73,80,81.93,9.35
Mount Gambier,AU,2020-09-10 15:22:44,-37.83,140.77,100,62,57.2,14.99
Hambantota,LK,2020-09-10 15:22:44,6.12,81.12,20,100,78.8,9.17
Kapaa,US,2020-09-10 15:22:45,22.08,-159.32,20,66,84.2,11.41
Thompson,CA,2020-09-10 15:22:45,55.74,-97.86,40,50,53.6,11.41
North Platte,US,2020-09-10 15:21:38,41.12,-100.77,1,44,59.0,4.68
Esperance,AU,2020-09-10 15:22:45,-33.87,121.9,19,100,44.6,4.7
Bluff,NZ,2020-09-10 15:22:45,-46.6,168.33,100,91,39.0,1.01
Atuona,PF,2020-09-10 15:22:46,-9.8,-139.03,2,75,78.21,23.42
Tasiilaq,GL,2020-09-10 15:22:46,65.61,-37.64,75,84,35.6,8.05
Christchurch,NZ,2020-09-10 15:20:19,-43.53,172.63,95,93,45.0,8.05
Ugoofaaru,MV,2020-09-10 15:21:09,5.67,73.0,47,78,81.82,13.62
Ribas do Rio Pardo,BR,2020-09-10 15:22:46,-20.44,-53.76,44,11,104.11,3.71
Copiapó,CL,2020-09-10 15:20:13,-27.37,-70.33,75,67,59.0,13.87
Castro,BR,2020-09-10 15:22:46,-24.79,-50.01,17,41,81.93,5.73
São Filipe,CV,2020-09-10 15:22:47,14.9,-24.5,52,82,80.76,10.71
Maragogi,BR,2020-09-10 15:22:47,-9.01,-35.22,0,78,76.91,13.18
Rundu,NA,2020-09-10 15:22:47,-17.93,19.77,0,22,68.22,7.27
Cândido Mendes,BR,2020-09-10 15:22:47,-1.45,-45.72,37,59,87.06,8.55
Pevek,RU,2020-09-10 15:22:48,69.7,170.31,100,93,42.01,7.67
Yamada,JP,2020-09-10 15:22:48,39.47,141.95,100,89,70.0,3.31
San Cristobal,VE,2020-09-10 15:22:48,7.77,-72.22,40,49,91.4,9.17
Gallup,US,2020-09-10 15:21:53,35.53,-108.74,40,36,62.6,10.29
Muros,ES,2020-09-10 15:22:48,42.78,-9.06,64,64,75.99,5.08
Fortuna,US,2020-09-10 15:22:49,40.6,-124.16,1,100,55.4,5.91
Mar del Plata,AR,2020-09-10 15:22:49,-38.0,-57.56,0,54,57.2,12.75
San Patricio,MX,2020-09-10 15:22:49,19.22,-104.7,40,70,91.4,9.17
Basco,PH,2020-09-10 15:22:49,20.45,121.97,4,72,83.89,8.14
Novomykolayivka,UA,2020-09-10 15:22:49,47.98,35.91,0,43,71.6,8.7
Khatanga,RU,2020-09-10 15:22:49,71.97,102.5,1,92,42.62,7.25
Córdoba,AR,2020-09-10 15:19:21,-31.41,-64.18,0,34,80.6,25.28
Hilo,US,2020-09-10 15:22:50,19.73,-155.09,90,83,77.0,4.7
Kurumkan,RU,2020-09-10 15:22:50,54.3,110.3,74,76,54.16,4.45
Berlevåg,NO,2020-09-10 15:22:50,70.86,29.09,0,93,42.8,8.05
Santa Rosa,PH,2020-09-10 15:22:50,14.31,121.11,20,83,82.4,2.24
Zhuanghe,CN,2020-09-10 15:22:51,39.7,122.99,6,91,63.09,11.74
Tiksi,RU,2020-09-10 15:22:51,71.69,128.87,93,70,42.87,7.09
Sergeevka,KZ,2020-09-10 15:22:51,53.88,67.42,100,49,50.86,9.19
Saint-Philippe,RE,2020-09-10 15:22:52,-21.36,55.77,90,77,69.8,11.41
Nouadhibou,MR,2020-09-10 15:22:52,20.93,-17.03,1,74,82.4,13.87
Mossamedes,AO,2020-09-10 15:22:52,-15.2,12.15,100,84,69.66,3.78
North Bend,US,2020-09-10 15:22:52,43.41,-124.22,90,100,53.01,3.36
Sur,OM,2020-09-10 15:22:52,22.57,59.53,0,58,84.92,9.44
Kailua,US,2020-09-10 15:22:53,21.4,-157.74,40,65,84.2,11.41
Ust-Maya,RU,2020-09-10 15:22:53,60.42,134.53,0,85,41.23,3.04
Murray Bridge,AU,2020-09-10 15:22:53,-35.12,139.27,100,50,64.99,5.99
Tessalit,ML,2020-09-10 15:22:53,20.2,1.01,61,10,101.3,7.96
Mataura,NZ,2020-09-10 15:22:54,-46.19,168.86,99,91,39.0,1.01
Constitución,CL,2020-09-10 15:22:54,-35.33,-72.42,12,74,58.73,8.3
Qaanaaq,GL,2020-09-10 15:22:54,77.48,-69.36,100,83,27.43,11.23
Bundaberg,AU,2020-09-10 15:22:54,-24.85,152.35,81,82,62.01,8.05
Ceres,US,2020-09-10 15:22:30,37.59,-120.96,90,50,75.2,5.82
Milas,TR,2020-09-10 15:22:55,37.32,27.78,0,61,78.8,4.7
Buin,CL,2020-09-10 15:22:55,-33.73,-70.75,0,49,71.01,8.05
Bubaque,GW,2020-09-10 15:18:07,11.28,-15.83,100,84,79.2,7.49
Tigil',RU,2020-09-10 15:22:55,57.8,158.67,0,93,37.24,2.82
Ostrovnoy,RU,2020-09-10 15:22:55,68.05,39.51,1,90,44.73,3.83
Longyearbyen,SJ,2020-09-10 15:22:55,78.22,15.64,75,81,44.6,18.34
Kabompo,ZM,2020-09-10 15:22:56,-13.59,24.2,0,27,65.55,4.65
Ilulissat,GL,2020-09-10 15:22:56,69.22,-51.1,75,59,35.6,3.36
Kozhva,RU,2020-09-10 15:22:56,65.11,57.05,0,92,47.62,8.05
Dikson,RU,2020-09-10 15:22:56,73.51,80.55,100,100,43.9,17.92
Bata,GQ,2020-09-10 15:22:57,1.86,9.77,40,83,80.6,6.93
Flinders,AU,2020-09-10 15:22:57,-34.58,150.86,82,85,53.01,1.01
Meulaboh,ID,2020-09-10 15:22:57,4.14,96.13,100,79,75.67,4.59
Sistranda,NO,2020-09-10 15:22:57,63.73,8.83,75,87,46.4,16.11
São Raimundo das Mangabeiras,BR,2020-09-10 15:22:57,-7.02,-45.48,2,17,100.54,7.07
Puerto Ayora,EC,2020-09-10 15:22:58,-0.74,-90.35,40,61,77.0,21.92
Siniscola,IT,2020-09-10 15:22:58,40.57,9.69,40,94,73.4,5.82
Saint Paul Harbor,US,2020-09-10 15:22:58,57.79,-152.41,1,50,55.4,13.87
Bilma,NE,2020-09-10 15:22:58,18.69,12.92,0,9,99.41,7.67
Caravelas,BR,2020-09-10 15:22:58,-17.71,-39.25,10,57,77.36,8.14
Rocha,UY,2020-09-10 15:22:26,-34.48,-54.33,0,53,60.19,5.61
Kavaratti,IN,2020-09-10 15:22:59,10.57,72.64,100,81,81.37,20.38
Mahabalipuram,IN,2020-09-10 15:22:59,12.63,80.17,75,74,84.2,5.82
Airai,TL,2020-09-10 15:22:59,-8.93,125.41,48,100,56.46,2.73
Chifeng,CN,2020-09-10 15:22:59,42.27,118.96,100,90,57.52,11.74
Progreso,MX,2020-09-10 15:23:00,21.28,-89.67,75,47,97.0,9.17
Kaitangata,NZ,2020-09-10 15:23:00,-46.28,169.85,85,72,42.01,3.0
Mumbwa,ZM,2020-09-10 15:23:00,-14.98,27.06,0,31,61.61,5.57
Hay River,CA,2020-09-10 15:23:00,60.82,-115.8,75,76,53.6,8.05
New Norfolk,AU,2020-09-10 15:23:00,-42.78,147.06,98,69,46.0,3.89
Champasak,LA,2020-09-10 15:23:01,14.75,106.0,100,96,74.28,1.07
Aksu,CN,2020-09-10 15:23:01,41.12,80.26,0,34,70.88,8.14
Talnakh,RU,2020-09-10 15:23:01,69.49,88.4,100,93,46.4,8.95
Grindavik,IS,2020-09-10 15:23:02,63.84,-22.43,75,93,48.2,11.41
Kurmanayevka,RU,2020-09-10 15:23:02,52.51,52.07,0,66,55.13,3.8
Olafsvik,IS,2020-09-10 15:23:02,64.89,-23.71,97,85,48.74,14.58
Osinovo,RU,2020-09-10 15:23:02,55.88,48.88,100,62,59.0,11.18
Odesa,UA,2020-09-10 15:23:02,46.48,30.73,0,77,68.0,6.71
Makkah al Mukarramah,SA,2020-09-10 15:23:03,21.43,39.83,100,32,91.15,3.0
Bathsheba,BB,2020-09-10 15:23:03,13.22,-59.52,40,62,87.8,6.93
Saldanha,ZA,2020-09-10 15:23:03,-33.01,17.94,11,72,60.8,6.93
Nara,JP,2020-09-10 15:23:03,34.69,135.8,46,96,73.99,2.98
Padang,ID,2020-09-10 15:23:04,-0.95,100.35,99,80,75.29,3.69
San Quintín,MX,2020-09-10 15:23:04,30.48,-115.95,0,37,81.54,8.97
Cayenne,GF,2020-09-10 15:23:04,4.93,-52.33,36,59,89.6,13.87
Ilhabela,BR,2020-09-10 15:23:04,-23.78,-45.36,15,76,76.59,1.72
Kudahuvadhoo,MV,2020-09-10 15:21:09,2.67,72.89,100,78,81.72,14.58
Nuuk,GL,2020-09-10 15:22:31,64.18,-51.72,40,72,41.0,17.22
Jalu,LY,2020-09-10 15:23:04,29.03,21.55,0,43,83.34,20.27
Hermon,US,2020-09-10 15:23:05,44.81,-68.91,40,61,84.99,12.75
High Level,CA,2020-09-10 15:23:05,58.52,-117.14,90,100,50.0,6.93
Imeni Poliny Osipenko,RU,2020-09-10 15:23:05,52.42,136.49,0,92,39.33,3.58
Solnechnyy,RU,2020-09-10 15:23:05,50.72,136.63,0,82,41.85,6.26
Saint-Pierre,RE,2020-09-10 15:23:05,-21.34,55.48,90,77,69.8,11.41
Spornoye,RU,2020-09-10 15:23:06,50.84,37.29,0,52,68.0,6.71
Dahuk,IQ,2020-09-10 15:23:06,36.87,42.99,0,17,79.88,4.94
Hofn,IS,2020-09-10 15:23:06,64.25,-15.21,100,88,49.19,9.35
Kiryat Gat,IL,2020-09-10 15:23:06,31.61,34.76,0,100,84.0,0.92
Salalah,OM,2020-09-10 15:23:06,17.02,54.09,20,88,78.8,3.36
Katsuura,JP,2020-09-10 15:23:07,35.13,140.3,20,88,80.6,10.29
Tingi,TZ,2020-09-10 15:23:07,-11.3,35.03,0,50,62.24,1.88
Lethem,GY,2020-09-10 15:23:07,3.38,-59.8,96,57,89.87,3.13
Okhotsk,RU,2020-09-10 15:23:07,59.38,143.3,0,63,46.26,8.99
Mergen,CN,2020-09-10 15:23:07,49.18,125.22,0,90,46.87,5.3
Porto-Novo,BJ,2020-09-10 15:23:08,6.5,2.6,40,83,78.8,10.29
Gadwāl,IN,2020-09-10 15:23:08,16.23,77.8,100,83,78.8,8.14
Kambove,CD,2020-09-10 15:23:08,-10.88,26.6,41,31,62.06,4.27
Sīkar,IN,2020-09-10 15:23:08,27.62,75.15,0,51,83.52,8.14
Saint-Augustin,CA,2020-09-10 15:23:05,51.23,-58.65,100,77,51.89,5.41
Kargasok,RU,2020-09-10 15:23:09,59.06,80.86,100,97,47.75,6.08
Tacoronte,ES,2020-09-10 15:23:09,28.48,-16.41,20,88,73.0,19.46
Philadelphia,US,2020-09-10 15:20:22,39.95,-75.16,90,78,84.99,3.36
Husavik,IS,2020-09-10 15:23:09,66.04,-17.34,90,87,48.2,5.82
Tomatlán,MX,2020-09-10 15:23:09,19.93,-105.25,13,52,91.85,4.34
São João dos Patos,BR,2020-09-10 15:21:12,-6.5,-43.7,0,19,97.86,7.34
Yanam,IN,2020-09-10 15:23:10,16.73,82.22,100,85,80.06,2.37
Ayagoz,KZ,2020-09-10 15:23:10,47.97,80.44,0,66,43.41,9.55
Atar,MR,2020-09-10 15:23:10,20.52,-13.05,100,16,103.3,12.17
Mwinilunga,ZM,2020-09-10 15:23:10,-11.74,24.43,22,28,61.81,5.37
Liverpool,GB,2020-09-10 15:18:21,53.41,-2.98,75,62,57.2,5.82
Kloulklubed,PW,2020-09-10 15:23:10,7.04,134.26,75,94,75.2,4.38
Los Llanos de Aridane,ES,2020-09-10 15:23:11,28.66,-17.92,20,78,75.2,14.99
Juneau,US,2020-09-10 15:23:11,58.3,-134.42,75,72,59.0,3.78
Quang Ngai,VN,2020-09-10 15:23:11,15.12,108.8,93,90,76.82,5.48
Porto Walter,BR,2020-09-10 15:23:11,-8.27,-72.74,97,30,97.68,1.48
Cairns,AU,2020-09-10 15:19:50,-16.92,145.77,16,72,68.0,4.7
Bandarbeyla,SO,2020-09-10 15:23:12,9.49,50.81,60,76,77.94,21.99
Anloga,GH,2020-09-10 15:23:12,5.79,0.9,20,83,78.8,10.29
Mnogovershinnyy,RU,2020-09-10 15:20:03,53.94,139.92,0,95,37.0,2.3
Romny,UA,2020-09-10 15:23:12,50.75,33.47,0,67,64.08,10.94
Geraldton,AU,2020-09-10 15:23:12,-28.77,114.6,90,93,46.4,4.7
Saint George,US,2020-09-10 15:18:43,37.1,-113.58,1,22,69.8,4.7
Necochea,AR,2020-09-10 15:23:12,-38.55,-58.74,0,48,64.0,14.0
Saint Anthony,US,2020-09-10 15:19:24,45.02,-93.22,75,58,59.0,4.7
Somerset,US,2020-09-10 15:18:32,40.57,-74.55,40,74,84.0,6.96
Kharhiāl,IN,2020-09-10 15:23:13,20.28,82.77,100,86,79.56,3.62
Presidencia Roque Sáenz Peña,AR,2020-09-10 15:23:13,-26.79,-60.44,0,34,90.64,8.28
George Town,MY,2020-09-10 15:23:13,5.41,100.34,40,100,77.0,3.36
Asău,RO,2020-09-10 15:23:13,46.43,26.4,0,74,63.0,4.16
Manono,CD,2020-09-10 15:23:13,-7.3,27.42,100,27,78.84,5.86
Chokurdakh,RU,2020-09-10 15:23:14,70.63,147.92,1,80,39.76,5.39
Harper,LR,2020-09-10 15:23:14,4.38,-7.72,79,83,76.53,10.69
Port Elizabeth,ZA,2020-09-10 15:23:14,-33.92,25.57,100,93,60.8,14.99
Guatire,VE,2020-09-10 15:18:38,10.48,-66.54,56,59,82.99,4.0
Bichena,ET,2020-09-10 15:23:14,10.45,38.2,7,84,54.43,3.62
Severo-Kuril'sk,RU,2020-09-10 15:23:15,50.68,156.12,100,80,49.5,5.73
Vikhorevka,RU,2020-09-10 15:23:15,56.12,101.16,100,93,48.2,2.24
Hithadhoo,MV,2020-09-10 15:21:36,-0.6,73.08,92,78,81.61,13.53
Souillac,MU,2020-09-10 15:23:15,-20.52,57.52,75,83,71.6,17.22
Bitung,ID,2020-09-10 15:23:16,1.45,125.18,20,94,75.2,1.12
Arraial do Cabo,BR,2020-09-10 15:23:16,-22.97,-42.03,83,61,78.8,20.8
Abnūb,EG,2020-09-10 15:23:16,27.27,31.15,0,33,87.8,5.82
Boca do Acre,BR,2020-09-10 15:23:16,-8.75,-67.4,97,22,101.01,4.43
Lashio,MM,2020-09-10 15:23:16,22.93,97.75,100,99,68.07,0.81
Angoram,PG,2020-09-10 15:23:16,-4.06,144.07,100,97,73.67,2.19
Beaverlodge,CA,2020-09-10 15:23:17,55.22,-119.44,20,36,77.0,17.22
Kirovskiy,RU,2020-09-10 15:23:17,45.09,133.51,88,96,54.14,2.51
Jiwani,PK,2020-09-10 15:23:17,25.05,61.74,100,77,83.7,9.06
Yellowknife,CA,2020-09-10 15:23:17,62.46,-114.35,75,66,54.0,11.41
Nanortalik,GL,2020-09-10 15:23:18,60.14,-45.24,0,66,41.59,39.46
Port-de-Bouc,FR,2020-09-10 15:23:18,43.4,4.98,100,88,73.4,4.7
Klaksvík,FO,2020-09-10 15:23:18,62.23,-6.59,97,100,50.0,12.75
Kansanshi,ZM,2020-09-10 15:23:18,-12.1,26.43,24,33,58.51,3.29
Sisimiut,GL,2020-09-10 15:23:19,66.94,-53.67,52,70,40.68,11.21
Lovozero,RU,2020-09-10 15:23:19,68.0,35.01,0,82,40.41,0.87
Baturaja,ID,2020-09-10 15:23:19,-4.13,104.17,100,92,74.5,1.99
Kieta,PG,2020-09-10 15:23:19,-6.22,155.63,68,80,77.7,3.65
Minudasht,IR,2020-09-10 15:23:19,37.23,55.37,0,60,68.0,4.7
Mujiayingzi,CN,2020-09-10 15:23:20,42.12,118.78,100,92,56.01,13.49
Vila Velha,BR,2020-09-10 15:23:20,-20.33,-40.29,100,65,81.0,19.46
Pathein,MM,2020-09-10 15:23:20,16.78,94.73,100,91,79.34,2.84
Kashan,IR,2020-09-10 15:23:20,33.98,51.44,100,18,83.5,12.48
Ponta do Sol,PT,2020-09-10 15:23:20,32.67,-17.1,40,73,73.4,12.75
Ilongero,TZ,2020-09-10 15:23:21,-4.67,34.87,74,50,68.13,13.11
Fairbanks,US,2020-09-10 15:20:01,64.84,-147.72,75,75,42.8,13.87
Nizhniy Tsasuchey,RU,2020-09-10 15:23:21,50.52,115.13,8,74,54.52,8.08
George Town,MY,2020-09-10 15:20:25,5.41,100.34,40,100,77.0,3.36
Aklavik,CA,2020-09-10 15:23:21,68.22,-135.01,90,93,37.4,4.7
Chakradharpur,IN,2020-09-10 15:23:21,22.7,85.63,100,84,78.76,3.11
Berbera,SO,2020-09-10 15:23:22,10.44,45.01,0,46,93.25,4.97
Toktogul,KG,2020-09-10 15:23:22,41.87,72.94,0,36,64.92,0.25
Izhma,RU,2020-09-10 15:23:22,65.01,53.91,100,90,47.66,9.35
Jishou,CN,2020-09-10 15:23:22,28.32,109.72,86,84,69.8,2.89
Salinópolis,BR,2020-09-10 15:23:22,-0.61,-47.36,0,71,83.37,15.99
Chui,UY,2020-09-10 15:23:23,-33.7,-53.46,0,61,59.9,7.72
Monforte de Lemos,ES,2020-09-10 15:23:23,42.52,-7.51,100,57,72.0,3.02
Port Alfred,ZA,2020-09-10 15:23:23,-33.59,26.89,100,85,62.58,19.82
Brownfield,US,2020-09-10 15:23:23,33.18,-102.27,100,75,54.0,3.0
Margate,GB,2020-09-10 15:22:11,51.38,1.39,11,47,62.01,2.84
Port Blair,IN,2020-09-10 15:23:23,11.67,92.75,100,85,80.83,10.47
Zeya,RU,2020-09-10 15:23:24,53.75,127.27,90,72,51.44,3.0
Jacareacanga,BR,2020-09-10 15:23:24,-6.22,-57.75,100,52,93.2,5.82
Solwezi,ZM,2020-09-10 15:23:24,-12.17,26.39,12,33,58.75,3.29
Sayyan,YE,2020-09-10 15:23:24,15.17,44.32,0,41,67.89,10.69
Coahuayana Viejo,MX,2020-09-10 15:23:24,18.73,-103.68,75,78,80.6,11.41
Marsabit,KE,2020-09-10 15:23:24,2.33,37.99,47,64,69.1,21.97
Teeli,RU,2020-09-10 15:23:25,51.03,90.23,100,79,38.46,1.45
Zyryanskoye,RU,2020-09-10 15:23:25,56.83,86.63,0,93,42.73,3.89
Fort Nelson,CA,2020-09-10 15:23:25,58.81,-122.7,90,100,53.6,3.36
Kruisfontein,ZA,2020-09-10 15:23:25,-34.0,24.73,100,92,60.01,3.0
Marakkanam,IN,2020-09-10 15:23:25,12.2,79.95,100,79,82.17,13.94
Mackenzie,CA,2020-09-10 15:23:26,55.3,-123.17,1,56,68.0,9.17
Faanui,PF,2020-09-10 15:23:26,-16.48,-151.75,0,75,78.08,11.9
Fort-Shevchenko,KZ,2020-09-10 15:23:26,44.51,50.26,0,54,69.17,6.76
Chisec,GT,2020-09-10 15:23:26,15.82,-90.28,60,49,92.52,3.98
Namtsy,RU,2020-09-10 15:23:26,62.72,129.67,100,75,41.0,2.24
Ternate,ID,2020-09-10 15:23:27,0.8,127.4,2,78,80.33,4.0
Awjilah,LY,2020-09-10 15:23:27,29.11,21.29,0,44,82.51,19.28
Plettenberg Bay,ZA,2020-09-10 15:23:27,-34.05,23.37,100,90,60.21,17.13
Ixtapa,MX,2020-09-10 15:23:27,20.7,-105.2,40,66,89.01,8.05
Hastings,GB,2020-09-10 15:23:27,50.86,0.57,4,76,59.0,8.05
Dakoro,NE,2020-09-10 15:23:28,14.51,6.76,1,35,94.78,9.71
Pundaguitan,PH,2020-09-10 15:23:28,6.37,126.17,100,75,84.07,11.9
Baykit,RU,2020-09-10 15:23:28,61.67,96.37,1,85,43.2,0.87
Provideniya,RU,2020-09-10 15:23:29,64.38,-173.3,90,87,46.4,2.24
Gimli,CA,2020-09-10 15:20:30,50.63,-96.99,0,76,72.0,3.0
Festus,US,2020-09-10 15:23:29,38.22,-90.4,67,69,86.0,4.56
Hong Kong,HK,2020-09-10 15:20:16,22.29,114.16,100,79,84.0,3.0
Pronsk,RU,2020-09-10 15:23:29,54.1,39.61,95,88,57.0,3.0
Yazd,IR,2020-09-10 15:23:30,31.9,54.37,97,14,84.2,4.7
Puerto Carreño,CO,2020-09-10 15:19:02,6.19,-67.49,40,52,89.6,5.82
Emba,KZ,2020-09-10 15:23:30,48.83,58.14,45,40,61.97,13.22
Norden,DE,2020-09-10 15:23:30,53.6,7.2,75,76,55.4,1.12
Atherton,GB,2020-09-10 15:19:41,53.52,-2.49,100,68,55.99,5.99
Biak,ID,2020-09-10 15:23:30,-0.91,122.88,37,82,76.68,6.13
Talagang,PK,2020-09-10 15:23:31,32.93,72.42,0,44,85.8,2.68
Ambovombe,MG,2020-09-10 15:23:31,-25.17,46.08,99,76,72.14,6.64
Dinar,TR,2020-09-10 15:23:31,38.06,30.17,0,35,73.4,4.7
Sungai Penuh,ID,2020-09-10 15:23:31,-2.08,101.38,100,92,64.47,1.68
Moree,AU,2020-09-10 15:23:32,-29.47,149.85,18,87,48.2,6.93
Belokurikha,RU,2020-09-10 15:23:32,52.0,84.99,0,86,42.53,4.81
Nochistlán de Mejía,MX,2020-09-10 15:23:32,21.37,-102.85,75,56,71.6,8.05
Nikolskoye,RU,2020-09-10 15:23:32,59.7,30.79,75,81,52.0,20.13
Cherskiy,RU,2020-09-10 15:23:32,68.75,161.3,71,87,39.11,2.59
Gorbatovka,RU,2020-09-10 15:23:33,56.25,43.75,90,100,61.0,11.18
Lompoc,US,2020-09-10 15:20:08,34.64,-120.46,90,93,57.2,3.36
Lukang,TW,2020-09-10 15:23:33,24.06,120.44,75,83,80.01,5.82
Sobolevo,RU,2020-09-10 15:23:33,54.43,31.9,0,81,51.3,11.36
Villa Constitución,AR,2020-09-10 15:23:34,-33.23,-60.33,0,32,82.99,8.01
Krasnyy Chikoy,RU,2020-09-10 15:23:34,50.36,108.75,100,83,54.43,3.94
Pumiao,CN,2020-09-10 15:23:34,22.75,108.48,40,88,78.8,2.24
Bambous Virieux,MU,2020-09-10 15:23:34,-20.34,57.76,75,83,72.0,17.22
Aljezur,PT,2020-09-10 15:23:34,37.32,-8.8,81,83,68.0,7.38
Auki,SB,2020-09-10 15:23:35,-8.77,160.7,29,85,75.6,3.6
Saint Simons,US,2020-09-10 15:23:35,31.14,-81.39,1,74,88.0,10.29
Vengerovo,RU,2020-09-10 15:23:35,55.68,76.75,4,78,47.64,6.35
Andenes,NO,2020-09-10 15:23:35,69.31,16.12,75,81,48.2,21.92
Neuquén,AR,2020-09-10 15:23:35,-38.95,-68.06,40,21,69.8,25.28
Crib Point,AU,2020-09-10 15:23:36,-38.35,145.2,0,78,54.0,13.98
Lebu,CL,2020-09-10 15:23:36,-37.62,-73.65,26,70,53.35,13.38
Codrington,AU,2020-09-10 15:23:36,-38.27,141.97,96,65,55.0,14.0
Mount Isa,AU,2020-09-10 15:23:36,-20.73,139.5,0,33,55.4,8.79
Petropavlovsk-Kamchatskiy,RU,2020-09-10 15:23:37,53.05,158.65,40,100,41.0,4.47
Kimbe,PG,2020-09-10 15:23:37,-5.55,150.14,10,89,74.08,4.81
Visnes,NO,2020-09-10 15:23:37,59.36,5.22,75,71,54.0,9.17
Statesboro,US,2020-09-10 15:23:37,32.45,-81.78,40,55,89.6,4.7
Walvis Bay,NA,2020-09-10 15:23:37,-22.96,14.51,0,31,80.6,8.05
Saint-Joseph,RE,2020-09-10 15:23:38,-21.37,55.62,90,77,69.8,11.41
Sarab,IR,2020-09-10 15:23:38,38.61,44.99,0,38,71.83,3.06
Saskylakh,RU,2020-09-10 15:23:38,71.92,114.08,88,85,46.29,5.68
Sechura,PE,2020-09-10 15:23:38,-5.56,-80.82,18,56,73.67,15.93
Miramar,US,2020-09-10 15:21:38,25.99,-80.23,1,70,88.0,10.29
Inírida,CO,2020-09-10 15:23:38,3.87,-67.92,40,50,93.11,1.97
Labuhan,ID,2020-09-10 15:23:39,-6.88,112.21,21,79,77.38,8.68
Port Macquarie,AU,2020-09-10 15:18:53,-31.43,152.92,3,98,53.01,7.74
Téra,NE,2020-09-10 15:23:39,14.01,0.75,0,46,90.93,8.81
Ełk,PL,2020-09-10 15:23:39,53.83,22.36,0,83,50.09,7.29
Kavieng,PG,2020-09-10 15:23:06,-2.57,150.8,6,70,82.96,8.57
Mareeba,AU,2020-09-10 15:23:39,-17.0,145.43,11,68,69.8,5.82
Barranca,PE,2020-09-10 15:23:40,-10.75,-77.77,17,69,65.16,10.92
Kalemie,CD,2020-09-10 15:23:40,-5.95,29.19,98,52,74.21,3.51
Swan River,CA,2020-09-10 15:23:40,52.11,-101.27,0,45,66.25,4.27
Whitehorse,CA,2020-09-10 15:19:34,60.72,-135.05,75,81,46.4,5.82
Kismayo,SO,2020-09-10 15:23:40,-0.36,42.55,0,80,77.79,14.76
Sayán,PE,2020-09-10 15:23:05,-11.14,-77.19,0,34,78.22,10.07
Manokwari,ID,2020-09-10 15:23:40,-0.87,134.08,0,77,78.98,5.32
Vestmannaeyjar,IS,2020-09-10 15:23:41,63.44,-20.27,90,100,48.2,13.87
Departamento de Maldonado,UY,2020-09-10 15:23:41,-34.67,-54.92,20,42,64.0,12.75
Nueva Imperial,CL,2020-09-10 15:22:39,-38.73,-72.95,75,71,53.6,10.29
Omsukchan,RU,2020-09-10 15:23:41,62.53,155.8,12,91,33.82,6.02
Troitsko-Pechorsk,RU,2020-09-10 15:23:41,62.71,56.2,18,96,47.77,7.81
Linxia Chengguanzhen,CN,2020-09-10 15:23:41,35.6,103.21,80,60,58.46,0.22
Port Lincoln,AU,2020-09-10 15:23:41,-34.73,135.87,100,74,61.75,4.25
Grand Gaube,MU,2020-09-10 15:23:42,-20.01,57.66,55,78,72.0,10.0
Upernavik,GL,2020-09-10 15:23:42,72.79,-56.15,100,95,34.65,10.94
Vardø,NO,2020-09-10 15:23:42,70.37,31.11,49,93,42.8,16.11
Gondanglegi,ID,2020-09-10 15:23:42,-7.75,112.01,0,81,74.03,10.07
Ébolowa,CM,2020-09-10 15:23:42,2.9,11.15,89,95,69.35,3.78
Naze,JP,2020-09-10 15:23:43,28.37,129.48,75,94,78.8,6.93
Udachny,RU,2020-09-10 15:23:43,66.42,112.4,90,87,42.8,4.47
Lagoa,PT,2020-09-10 15:23:43,39.05,-27.98,0,78,72.52,7.25
La Sarre,CA,2020-09-10 15:23:43,48.8,-79.2,34,59,56.37,7.63
Green River,US,2020-09-10 15:23:43,41.53,-109.47,90,86,33.8,6.93
Cambridge,CA,2020-09-10 15:21:12,43.36,-80.31,90,72,73.0,10.29
Roebourne,AU,2020-09-10 15:23:44,-20.78,117.13,0,33,81.55,20.09
Kultuk,RU,2020-09-10 15:23:44,51.72,103.7,100,82,45.88,4.79
Igarka,RU,2020-09-10 15:23:44,67.47,86.58,100,84,46.56,11.97
Coyhaique,CL,2020-09-10 15:23:44,-45.58,-72.07,90,75,46.4,9.17
Santa Lucía,ES,2020-09-10 15:23:44,27.91,-15.54,20,69,75.2,27.51
Aquiraz,BR,2020-09-10 15:23:44,-3.9,-38.39,20,62,84.2,14.99
Bayir,TR,2020-09-10 15:23:45,37.27,28.22,0,61,78.8,4.7
Alta Floresta,BR,2020-09-10 15:23:45,-9.88,-56.09,1,20,102.2,6.93
Neiafu,TO,2020-09-10 15:23:45,-18.65,-173.98,75,94,77.0,9.17
Sanming,CN,2020-09-10 15:23:45,26.25,117.62,82,85,75.51,1.3
Olinda,BR,2020-09-10 15:20:29,-8.01,-34.86,75,69,82.4,13.87
Beloha,MG,2020-09-10 15:23:45,-25.17,45.05,100,58,76.95,4.92
Qaqortoq,GL,2020-09-10 15:22:03,60.72,-46.03,20,34,48.2,13.87
Taltal,CL,2020-09-10 15:23:46,-25.4,-70.48,22,64,61.41,4.05
Hohhot,CN,2020-09-10 15:23:46,40.81,111.65,0,76,48.2,4.47
Poum,NC,2020-09-10 15:21:12,-20.23,164.02,0,74,70.72,16.87
Kushima,JP,2020-09-10 15:23:46,31.46,131.23,75,88,75.2,1.12
Albert Lea,US,2020-09-10 15:23:01,43.65,-93.37,75,76,52.0,4.32
Serenje,ZM,2020-09-10 15:23:46,-13.23,30.24,0,38,58.77,5.21
Koster,ZA,2020-09-10 15:23:46,-25.86,26.9,0,25,63.18,6.96
Vostok,RU,2020-09-10 15:23:47,46.49,135.88,100,99,51.37,3.13
Iquique,CL,2020-09-10 15:23:47,-20.22,-70.14,40,63,62.6,10.29
Raudeberg,NO,2020-09-10 15:23:47,61.99,5.14,100,74,50.0,23.15
Ponta Delgada,PT,2020-09-10 15:23:47,37.73,-25.67,40,83,71.6,4.7
Darhan,MN,2020-09-10 15:23:47,49.49,105.92,100,89,59.36,11.43
Lityn,UA,2020-09-10 15:23:48,49.33,28.08,15,91,61.07,8.32
Kumul,CN,2020-09-10 15:23:48,42.8,93.45,41,28,68.7,8.46
Zabul Province,AF,2020-09-10 15:23:48,32.25,67.25,0,22,64.47,11.48
Toma,BF,2020-09-10 15:23:48,12.77,-2.88,23,75,79.2,5.53
Picuí,BR,2020-09-10 15:23:49,-6.51,-36.35,61,44,83.64,21.09
Jiangyou,CN,2020-09-10 15:23:49,31.77,104.72,5,75,72.01,2.57
Algodones,MX,2020-09-10 15:23:49,20.39,-105.48,40,66,89.01,8.05
Kahului,US,2020-09-10 15:23:49,20.89,-156.47,40,51,86.0,16.11
Baffa,PK,2020-09-10 15:23:49,34.44,73.22,0,52,69.44,4.59
Miguel Pereira,BR,2020-09-10 15:23:50,-22.45,-43.47,22,46,93.2,5.82
Tupik,RU,2020-09-10 15:23:50,54.43,119.93,73,91,51.28,3.69
Zheleznodorozhnyy,RU,2020-09-10 15:23:50,55.75,38.0,40,93,55.4,6.71
Lensk,RU,2020-09-10 15:23:50,60.73,114.93,61,86,42.3,1.83
São João da Barra,BR,2020-09-10 15:23:50,-21.64,-41.05,91,61,80.6,20.8
Zhuhai,CN,2020-09-10 15:23:51,22.28,113.57,20,83,84.2,8.05
Llangefni,GB,2020-09-10 15:23:51,53.26,-4.31,100,71,57.99,17.22
Prince Rupert,CA,2020-09-10 15:23:51,54.32,-130.32,1,87,60.8,5.82
Esmeraldas,BR,2020-09-10 15:23:51,-19.76,-44.31,21,15,87.8,4.27
São Gabriel da Cachoeira,BR,2020-09-10 15:23:51,-0.13,-67.09,75,59,91.4,5.82
Wattegama,LK,2020-09-10 15:23:52,6.8,81.48,20,100,78.8,9.17
La Rioja,ES,2020-09-10 15:23:52,42.25,-2.5,0,40,73.4,2.24
Sovetskiy,RU,2020-09-10 15:23:52,61.36,63.58,55,77,53.73,8.72
Zhigansk,RU,2020-09-10 15:23:52,66.77,123.37,100,71,46.58,7.23
Esim,GH,2020-09-10 15:23:53,4.87,-2.24,99,89,75.92,7.25
Pombas,CV,2020-09-10 15:23:53,17.15,-25.02,40,74,84.2,16.11
Veinticinco de Mayo,AR,2020-09-10 15:23:53,-35.43,-60.17,0,52,73.99,11.99
Asilah,MA,2020-09-10 15:23:53,35.47,-6.03,4,47,77.0,12.75
Gornopravdinsk,RU,2020-09-10 15:23:53,60.05,69.9,100,71,53.1,7.0
Acajutla,SV,2020-09-10 15:20:57,13.59,-89.83,20,58,87.8,2.24
The Valley,AI,2020-09-10 15:23:53,18.22,-63.06,20,62,89.6,12.75
Plastun,RU,2020-09-10 15:23:54,44.76,136.29,100,82,57.54,6.78
Marrakesh,MA,2020-09-10 15:21:08,31.63,-8.01,0,24,91.4,6.93
Broken Hill,AU,2020-09-10 15:23:54,-31.95,141.43,90,58,59.0,16.11
Leningradskiy,RU,2020-09-10 15:23:54,69.38,178.42,100,84,42.4,1.74
Narsaq,GL,2020-09-10 15:23:54,60.92,-46.05,20,34,48.2,13.87
Quatre Cocos,MU,2020-09-10 15:19:04,-20.21,57.76,75,83,72.0,17.22
Paamiut,GL,2020-09-10 15:23:27,61.99,-49.67,0,74,40.17,25.12
Nyurba,RU,2020-09-10 15:23:55,63.28,118.33,31,97,39.81,2.44
Yafran,LY,2020-09-10 15:23:55,32.06,12.53,0,62,74.98,5.88
Shīeli,KZ,2020-09-10 15:23:55,44.17,66.75,46,26,67.64,10.65
Tokmak,UA,2020-09-10 15:23:55,47.25,35.71,0,55,66.76,7.81
Araouane,ML,2020-09-10 15:21:05,18.9,-3.53,0,13,105.42,7.65
Acarí,PE,2020-09-10 15:23:05,-15.43,-74.62,0,39,74.52,10.04
Mogadishu,SO,2020-09-10 15:22:52,2.04,45.34,7,83,77.67,17.43
Torbay,CA,2020-09-10 15:23:55,47.67,-52.73,75,55,64.0,12.75
Clyde River,CA,2020-09-10 15:23:56,70.47,-68.59,90,64,39.2,4.7
Sennar,SD,2020-09-10 15:23:56,13.57,33.57,100,70,80.02,8.79
Marquette,US,2020-09-10 15:23:56,46.53,-87.63,10,63,59.0,3.0
Paita,PE,2020-09-10 15:23:57,-5.09,-81.11,13,68,69.8,12.75
Mabamba,TZ,2020-09-10 15:23:57,-3.6,30.5,73,41,70.74,1.45
Flic en Flac,MU,2020-09-10 15:23:57,-20.27,57.36,75,83,72.0,17.22
Isangel,VU,2020-09-10 15:23:57,-19.55,169.27,12,83,68.95,13.73
Jászberény,HU,2020-09-10 15:23:57,47.5,19.92,30,64,70.0,2.24
College,US,2020-09-10 15:23:58,64.86,-147.8,75,70,44.6,9.17
Vila Franca do Campo,PT,2020-09-10 15:23:58,37.72,-25.43,40,83,71.6,4.7
Médéa,DZ,2020-09-10 15:23:58,36.26,2.75,40,69,75.2,6.93
Malé,MV,2020-09-10 15:23:58,4.17,73.51,75,88,80.6,11.41
Yavatmal,IN,2020-09-10 15:23:58,20.4,78.13,100,91,76.86,1.19
Tolbazy,RU,2020-09-10 15:23:59,54.02,55.88,40,93,51.8,8.95
Tateyama,JP,2020-09-10 15:23:59,34.98,139.87,83,86,81.0,1.01
Tarko-Sale,RU,2020-09-10 15:23:59,64.92,77.78,91,93,52.0,10.76
Le Vauclin,MQ,2020-09-10 15:23:59,14.55,-60.84,33,59,89.6,10.29
Phimai,TH,2020-09-10 15:23:59,15.22,102.49,100,83,78.4,1.99
Zilupe,LV,2020-09-10 15:24:00,56.39,28.12,0,76,49.55,10.27
Pangody,RU,2020-09-10 15:24:00,65.85,74.49,0,90,57.2,11.88
Ecoporanga,BR,2020-09-10 15:24:00,-18.37,-40.83,96,34,83.61,5.26
Delta,NG,2020-09-10 15:24:00,5.5,6.0,100,94,74.82,3.09
Cangzhou,CN,2020-09-10 15:24:01,38.32,116.87,92,76,65.41,8.05
Zhanakorgan,KZ,2020-09-10 15:24:01,43.91,67.25,96,24,69.24,8.97
Buala,SB,2020-09-10 15:24:01,-8.14,159.59,40,80,78.1,2.24
Ucluelet,CA,2020-09-10 15:24:01,48.93,-125.55,20,44,75.99,5.82
Bethel,US,2020-09-10 15:24:01,41.37,-73.41,75,74,80.6,5.82
Oktyabr'skiy,RU,2020-09-10 15:24:02,54.48,53.47,11,76,51.13,4.43
Kamina,CD,2020-09-10 15:24:02,-8.74,24.99,1,20,74.3,3.44
Potamiá,GR,2020-09-10 15:24:02,40.72,24.73,0,73,77.0,6.93
Mehamn,NO,2020-09-10 15:24:02,71.04,27.85,40,81,48.2,2.24
Buarcos,PT,2020-09-10 15:24:02,40.17,-8.88,23,72,71.01,4.7
Sorong,ID,2020-09-10 15:24:02,-0.88,131.25,15,86,78.3,6.71
Nantucket,US,2020-09-10 15:19:05,41.28,-70.1,90,94,73.4,5.82
Ōhara,JP,2020-09-10 15:24:03,35.25,140.38,40,94,80.6,3.36
Pitimbu,BR,2020-09-10 15:24:03,-7.47,-34.81,20,65,80.6,18.34
Jining,CN,2020-09-10 15:24:04,35.41,116.58,0,93,63.79,4.0
Hualmay,PE,2020-09-10 15:22:56,-11.1,-77.61,23,68,65.66,10.78
Bilibino,RU,2020-09-10 15:24:04,68.05,166.44,100,85,39.33,0.94
Moerai,PF,2020-09-10 15:24:04,-22.43,-151.33,10,67,68.14,14.41
Aswān,EG,2020-09-10 15:21:45,24.09,32.91,0,17,98.6,9.17
Palmer,US,2020-09-10 15:24:04,42.16,-72.33,75,74,82.99,9.17
Zambrów,PL,2020-09-10 15:24:05,52.99,22.24,73,70,55.99,5.53
Kapoeta,SS,2020-09-10 15:24:05,4.77,33.59,1,46,80.15,3.8
Touros,BR,2020-09-10 15:24:05,-5.2,-35.46,40,74,80.6,14.99
Sokoto,NG,2020-09-10 15:22:51,13.06,5.24,17,64,84.29,12.24
Oddur,SO,2020-09-10 15:24:05,4.12,43.89,0,54,79.9,14.58
Zemio,CF,2020-09-10 15:24:06,5.03,25.14,100,97,68.77,3.91
Half Moon Bay,US,2020-09-10 15:24:06,37.46,-122.43,90,77,66.99,4.7
Birjand,IR,2020-09-10 15:24:06,32.87,59.22,0,18,68.0,11.41
Gravdal,NO,2020-09-10 15:24:06,68.12,13.5,75,81,46.4,16.11
Itoman,JP,2020-09-10 15:24:06,26.12,127.67,20,88,80.6,9.17
Odesskoye,RU,2020-09-10 15:24:07,54.21,72.97,0,54,51.73,7.4
San Martín,AR,2020-09-10 15:24:07,-33.08,-68.47,0,26,78.8,5.82
Banepā,NP,2020-09-10 15:24:07,27.63,85.52,75,94,71.6,3.36
Dhidhdhoo,MV,2020-09-10 15:24:07,6.88,73.1,100,79,81.81,16.4
Toora-Khem,RU,2020-09-10 15:24:07,52.47,96.11,72,89,35.31,4.07
Bosaso,SO,2020-09-10 15:24:08,11.28,49.18,0,50,91.65,1.68
Kunya,NG,2020-09-10 15:24:08,12.22,8.53,40,94,68.0,4.7
Yangambi,CD,2020-09-10 15:24:08,0.81,24.43,19,93,72.61,0.11
Hanna,CA,2020-09-10 15:24:08,51.63,-111.9,0,35,75.99,10.0
Velyka Bahachka,UA,2020-09-10 15:24:09,49.79,33.72,0,58,66.29,5.61
San Marcos,US,2020-09-10 15:23:07,33.14,-117.17,1,60,91.0,6.93
Penzance,GB,2020-09-10 15:24:09,50.12,-5.54,0,76,57.99,6.93
Bull Savanna,JM,2020-09-10 15:24:09,17.89,-77.59,4,72,83.86,9.46
Sauce,UY,2020-09-10 15:24:09,-34.65,-56.06,20,23,68.0,8.05
Verkhnyaya Inta,RU,2020-09-10 15:24:10,65.98,60.31,97,83,52.34,14.09
Katangli,RU,2020-09-10 15:24:10,51.71,143.23,0,93,43.25,4.05
Nālūt,LY,2020-09-10 15:24:10,30.33,10.85,1,24,87.69,13.44
Gazojak,TM,2020-09-10 15:24:11,41.19,61.4,0,22,71.28,8.21
Namatanai,PG,2020-09-10 15:24:11,-3.67,152.43,98,82,78.75,3.71
Praia,CV,2020-09-10 15:24:11,14.92,-23.51,40,78,82.4,13.87
Hukuntsi,BW,2020-09-10 15:24:11,-24.0,21.75,0,27,64.38,4.68
Vao,NC,2020-09-10 15:24:12,-22.67,167.48,5,70,67.57,13.44
Balkhash,KZ,2020-09-10 15:24:12,46.84,74.98,0,43,57.22,19.95
Buenos Aires,AR,2020-09-10 15:20:03,-34.61,-58.38,0,72,66.0,9.17
Kinablangan,PH,2020-09-10 15:24:12,7.69,126.55,87,80,79.45,4.99
Mahibadhoo,MV,2020-09-10 15:24:12,3.78,72.97,99,79,81.7,14.23
Mabaruma,GY,2020-09-10 15:24:13,8.2,-59.78,28,58,89.92,5.68
Ayan,RU,2020-09-10 15:24:13,56.45,138.17,0,65,49.95,4.45
Alofi,NU,2020-09-10 15:24:13,-19.06,-169.92,100,94,75.2,5.82
Brae,GB,2020-09-10 15:24:13,60.4,-1.35,40,81,53.6,19.46
Sørland,NO,2020-09-10 15:24:14,67.67,12.69,75,81,48.2,24.16
Fruitvale,US,2020-09-10 15:24:14,39.08,-108.5,90,76,52.0,9.17
Smoky Lake,CA,2020-09-10 15:24:14,54.12,-112.47,0,53,70.29,10.2
Sandpoint,US,2020-09-10 15:22:04,48.28,-116.55,1,28,73.99,10.29
Bell Ville,AR,2020-09-10 15:24:14,-32.63,-62.69,0,33,82.99,20.0
Gijón,ES,2020-09-10 15:20:55,43.54,-5.66,0,76,69.01,5.01
Menongue,AO,2020-09-10 15:24:15,-14.66,17.69,0,26,64.06,4.97
Baft,IR,2020-09-10 15:24:15,29.23,56.61,12,28,69.66,1.92
Cervo,ES,2020-09-10 15:24:15,43.67,-7.41,79,1,66.99,6.69
Sindor,RU,2020-09-10 15:24:15,62.86,51.89,100,82,49.78,8.79
Yulara,AU,2020-09-10 15:24:15,-25.24,130.99,0,31,60.8,3.36
Ilek,RU,2020-09-10 15:24:16,51.53,53.38,0,78,55.69,1.7
Lumphat,KH,2020-09-10 15:24:16,13.49,106.98,100,97,73.53,2.53
Nhulunbuy,AU,2020-09-10 15:24:16,-12.23,136.77,0,88,69.8,6.93
Kisangani,CD,2020-09-10 15:24:17,0.52,25.2,83,88,73.78,0.89
Kommunisticheskiy,RU,2020-09-10 15:24:17,61.68,64.48,99,75,54.48,9.46
Ahipara,NZ,2020-09-10 15:23:04,-35.17,173.17,88,72,52.32,10.51
Krasnosel'kup,RU,2020-09-10 15:24:17,65.7,82.47,100,92,53.51,11.43
Kedrovyy,RU,2020-09-10 15:24:17,56.17,91.82,0,100,35.6,2.33
Lappeenranta,FI,2020-09-10 15:24:18,61.06,28.19,90,87,51.01,13.87
Magdagachi,RU,2020-09-10 15:24:18,53.45,125.8,82,75,50.67,3.11
Alpena,US,2020-09-10 15:24:18,45.06,-83.43,75,67,57.99,4.7
Yumen,CN,2020-09-10 15:24:18,40.28,97.2,0,40,61.93,7.74
Gualaquiza,EC,2020-09-10 15:24:18,-3.4,-78.55,57,41,81.45,2.73
Oodweyne,SO,2020-09-10 15:24:18,9.41,45.06,39,32,82.67,14.97
Lüderitz,NA,2020-09-10 15:24:19,-26.65,15.16,0,55,67.62,7.67
Dawei,MM,2020-09-10 15:24:19,14.08,98.2,100,87,77.83,2.64
Sept-Îles,CA,2020-09-10 15:22:02,50.2,-66.38,90,87,48.99,8.05
Puerto Madryn,AR,2020-09-10 15:24:19,-42.77,-65.04,40,21,69.8,38.03
Dingzhou,CN,2020-09-10 15:24:20,38.51,115.0,26,72,68.0,4.47
‘Ewa Beach,US,2020-09-10 15:24:20,21.32,-158.01,1,54,84.2,8.05
Homer,US,2020-09-10 15:22:13,59.64,-151.55,1,81,51.8,6.93
Ilo,PE,2020-09-10 15:24:20,-17.64,-71.34,75,63,64.4,8.05
Saint-Louis,SN,2020-09-10 15:24:21,16.33,-15.0,100,59,93.2,12.5
Kalengwa,ZM,2020-09-10 15:24:21,-13.47,25.0,14,27,64.8,5.28
Takoradze,GH,2020-09-10 15:20:11,4.88,-1.76,53,88,76.08,8.14
Moses Lake,US,2020-09-10 15:24:21,47.13,-119.28,1,21,82.4,4.7
Pisco,PE,2020-09-10 15:24:21,-13.7,-76.22,43,60,68.0,11.41
Seymchan,RU,2020-09-10 15:24:21,62.88,152.43,28,86,38.35,7.18
Wahiawā,US,2020-09-10 15:24:22,21.5,-158.02,20,61,84.2,9.17
Santa Isabel Rio Negro,BR,2020-09-10 15:24:22,-0.41,-65.02,46,47,92.25,4.29
Ensenada,MX,2020-09-10 15:24:22,31.87,-116.62,0,78,75.99,5.99
Mitsamiouli,KM,2020-09-10 15:24:22,-11.38,43.28,20,78,75.2,4.7
Laiya,PH,2020-09-10 15:24:22,13.68,121.39,100,92,78.01,3.56
Umluj,SA,2020-09-10 15:24:23,25.02,37.27,0,80,85.28,6.46
Carballo,ES,2020-09-10 15:24:23,43.21,-8.69,100,69,73.4,3.36
Pilar,BR,2020-09-10 15:24:23,-9.6,-35.96,75,74,78.8,14.99
Skibbereen,IE,2020-09-10 15:24:23,51.55,-9.27,75,81,53.6,6.93
Malpe,IN,2020-09-10 15:24:23,13.35,74.72,90,94,75.2,6.93
Tura,IN,2020-09-10 15:24:24,25.52,90.22,100,96,75.11,6.15
Destin,US,2020-09-10 15:20:17,30.39,-86.5,1,59,89.6,2.44
Schrobenhausen,DE,2020-09-10 15:24:24,48.55,11.27,40,82,66.0,2.24
Aksarka,RU,2020-09-10 15:24:24,66.56,67.8,93,81,57.52,20.51
Alcañiz,ES,2020-09-10 15:24:24,41.05,-0.13,0,74,72.0,1.01
Pelym,RU,2020-09-10 15:24:25,61.01,62.0,0,90,50.65,7.78
Itarema,BR,2020-09-10 15:24:25,-2.92,-39.92,75,62,82.58,20.02
Añisoc,GQ,2020-09-10 15:24:25,1.87,10.77,100,91,70.3,3.38
Severnyy,RU,2020-09-10 15:24:25,50.68,36.55,0,52,68.0,6.71
Wenling,CN,2020-09-10 15:24:25,28.37,121.36,100,87,78.01,2.98
Ngunguru,NZ,2020-09-10 15:24:26,-35.62,174.5,43,3,48.0,5.01
Coquimbo,CL,2020-09-10 15:24:26,-29.95,-71.34,0,63,64.4,17.22
Burnie,AU,2020-09-10 15:24:27,-41.07,145.92,100,82,51.01,4.0
Bira,RU,2020-09-10 15:24:27,49.0,132.47,0,67,46.69,4.21
Bambanglipuro,ID,2020-09-10 15:24:27,-7.95,110.28,62,86,75.25,4.54
Abu Samrah,SY,2020-09-10 15:24:27,35.3,37.18,78,16,89.73,11.43
Pokhvistnevo,RU,2020-09-10 15:24:27,53.65,52.13,25,71,53.44,4.61
Yerbogachën,RU,2020-09-10 15:24:27,61.28,108.01,79,79,44.65,3.62
Aripuanã,BR,2020-09-10 15:24:28,-9.17,-60.63,87,18,102.38,3.53
Hamilton,US,2020-09-10 15:20:22,39.18,-84.53,40,55,89.01,4.7
Teya,RU,2020-09-10 15:24:28,60.38,92.63,0,88,40.5,1.16
Dzhebariki-Khaya,RU,2020-09-10 15:24:28,62.22,135.8,0,81,41.61,0.85
Carbonia,IT,2020-09-10 15:24:29,39.17,8.52,40,83,71.01,1.12
Ordu,TR,2020-09-10 15:24:29,40.91,37.68,75,94,73.4,4.7
Çorum Province,TR,2020-09-10 15:22:29,40.5,34.75,0,90,56.98,4.41
Warrnambool,AU,2020-09-10 15:24:29,-38.38,142.48,48,65,55.0,14.0
Yeniseysk,RU,2020-09-10 15:24:29,58.45,92.17,63,95,40.91,1.74
Soledade,BR,2020-09-10 15:24:30,-28.82,-52.51,0,64,75.2,11.41
Evensk,RU,2020-09-10 15:24:30,61.95,159.23,32,64,43.07,18.81
Novosheshminsk,RU,2020-09-10 15:24:30,55.07,51.23,98,77,53.74,9.73
Adrar,MR,2020-09-10 15:24:30,20.5,-10.07,100,16,101.73,14.81
Rawson,AR,2020-09-10 15:24:31,-43.3,-65.1,40,21,69.8,38.03
Marabu,MY,2020-09-10 15:24:31,4.41,114.01,40,100,75.2,2.24
Waingapu,ID,2020-09-10 15:24:31,-9.66,120.26,87,85,74.16,8.88
Winnemucca,US,2020-09-10 15:24:31,40.97,-117.74,1,6,77.0,5.82
Beringovskiy,RU,2020-09-10 15:24:31,63.05,179.32,100,94,48.36,14.38
Saquena,PE,2020-09-10 15:24:32,-4.67,-73.52,87,43,94.32,2.82
Khandyga,RU,2020-09-10 15:24:32,62.67,135.6,0,83,41.34,0.31
Gevrai,IN,2020-09-10 15:24:32,19.27,75.75,100,87,77.61,5.57
Toamasina,MG,2020-09-10 15:24:32,-18.17,49.38,40,94,68.0,3.36
Santa Marta,CO,2020-09-10 15:24:32,11.24,-74.2,20,55,91.4,5.82
Lichuan,CN,2020-09-10 15:24:32,30.3,108.85,95,96,61.36,2.39
Deputatsky,RU,2020-09-10 15:24:33,69.3,139.9,0,89,34.02,1.05
Bereda,ES,2020-09-10 15:24:33,43.27,-7.54,0,85,66.0,7.0
Malinovskiy,RU,2020-09-10 15:24:33,61.2,62.84,0,82,52.29,8.99
Krasnokamensk,RU,2020-09-10 15:24:33,50.1,118.04,100,73,51.75,4.34
Mokhsogollokh,RU,2020-09-10 15:24:33,61.47,128.92,99,75,46.22,3.89
Griffith,US,2020-09-10 15:20:08,41.53,-87.42,75,72,66.0,10.29
Gabú,GW,2020-09-10 15:24:34,12.28,-14.22,100,88,80.42,3.42
Madawaska,US,2020-09-10 15:24:34,47.36,-68.33,90,93,53.01,5.82
Makakilo City,US,2020-09-10 15:24:34,21.35,-158.09,1,54,84.2,8.05
